{
"type": "FeatureCollection",
"name": "topo_locations",
"crs": { "type": "name", "properties": { "name": "urn:ogc:def:crs:OGC:1.3:CRS84" } },
"features": [
{ "type": "Feature", "properties": { "Index": 0, "Name": "West Harlem", "Lat": 40.832072, "Long": -73.940158, "Description": "lorem ipsum lorem ipsum", "Image": "https://live.staticflickr.com/3685/13109932323_afef35ce14_b.jpg" }, "geometry": { "type": "Point", "coordinates": [ -73.940158, 40.832072 ] } },
{ "type": "Feature", "properties": { "Index": 1, "Name": "Inwood", "Lat": 40.872970, "Long": -73.925838, "Description": "lorem ipsum lorem ipsum", "Image":"https://1.bp.blogspot.com/-LWxq2KigjbE/XsO8Lu2TF4I/AAAAAAAAXbk/31eUiAfIFiEc94wPa8-9lJpWk9tqKsTYACLcBGAsYHQ/s1600/forest%2Bsteps.JPG"}, "geometry": { "type": "Point", "coordinates": [ -73.925838, 40.872970 ] } },
{ "type": "Feature", "properties": { "Index": 2, "Name": "Highbridge", "Lat": 40.838039, "Long": -73.922737, "Description": "lorem ipsum lorem ipsum", "Image":"https://i.pinimg.com/originals/ee/0f/f2/ee0ff21681c82cdc03eee0dfd4740c41.jpg"}, "geometry": { "type": "Point", "coordinates": [ -73.922737, 40.838039 ] } },
{ "type": "Feature", "properties": { "Index": 3, "Name": "New York Botanical Gardens", "Lat": 40.861534, "Long": -73.875602, "Description": "lorem ipsum lorem ipsum", "Image": "https://live.staticflickr.com/2572/4157256035_50ebd83c74_b.jpg" }, "geometry": { "type": "Point", "coordinates": [ -73.875602, 40.861534 ] } },
{ "type": "Feature", "properties": { "Index": 4, "Name": "Ridgewood Reservoir", "Lat": 40.686978, "Long": -73.88563, "Description": "lorem ipsum lorem ipsum", "Image": "https://brokelyn.com/app/uploads/2013/11/highland-park-reservoir.jpg" }, "geometry": { "type": "Point", "coordinates": [ -73.88563, 40.686978 ] } },
{ "type": "Feature", "properties": { "Index": 5, "Name": "Holliswood", "Lat": 40.719199, "Long": -73.765428, "Description": "lorem ipsum lorem ipsum", "Image": "https://static01.nyt.com/images/2018/11/11/realestate/11Living-In-Hollis-Hills-slide-WRN5/11Living-In-Hollis-Hills-slide-WRN5-articleLarge.jpg?quality=75&auto=webp&disable=upscale" }, "geometry": { "type": "Point", "coordinates": [ -73.765428, 40.719199 ] } },
{ "type": "Feature", "properties": { "Index": 6, "Name": "Greenwood Cemetery", "Lat": 40.657544, "Long": -73.988955, "Description": "lorem ipsum lorem ipsum", "Image": "https://images.squarespace-cdn.com/content/5eda82dbf6516f4cff332c7e/1641496309403-WRH5YF6A7NQBWFC1957J/greenwood-cemetery-brooklyn-architecture-arts-2019-2.jpeg?format=1500w&content-type=image%2Fjpeg" }, "geometry": { "type": "Point", "coordinates": [ -73.988955, 40.657544 ] } },
{ "type": "Feature", "properties": { "Index": 7, "Name": "Prospect Park", "Lat": 40.657834, "Long": -73.970665, "Description": "lorem ipsum lorem ipsum", "Image": "https://fastly.4sqi.net/img/general/600x600/174671_sIVDbmL5GxylZMA5h0kkt98Cej7n4MgT6YXEJq0Vhqg.jpg"}, "geometry": { "type": "Point", "coordinates": [ -73.970665, 40.657834 ] } },
{ "type": "Feature", "properties": { "Index": 8, "Name": "Fort Wadsworth", "Lat": 40.603871, "Long": -74.056014, "Description": "lorem ipsum lorem ipsum", "Image": "https://abandonednyc.files.wordpress.com/2014/02/will-ellis_abandoned-nyc_fort-wadsworth_staten-island_01.jpg?w=750&h=500" }, "geometry": { "type": "Point", "coordinates": [ -74.056014, 40.603871 ] } },
{ "type": "Feature", "properties": { "Index": 9, "Name": "Latourette Park", "Lat": 40.584017, "Long": -74.140704, "Description": "lorem ipsum lorem ipsum", "Image": "https://live.staticflickr.com/65535/51633103997_a40db791f8_b.jpg" }, "geometry": { "type": "Point", "coordinates": [ -74.140704, 40.584017 ] } },
{ "type": "Feature", "properties": { "Index": 10, "Name": "North Woods", "Lat": 40.797690, "Long": -73.957295, "Description": "lorem ipsum lorem ipsum", "Image": "https://www.tclf.org/sites/default/files/styles/full_width/public/thumbnails/image/NY_NYC_TheNorthWoods_03_CourtesyCPC_2012_sig.jpg?itok=LOnnjeM9" }, "geometry": { "type": "Point", "coordinates": [ -73.957295, 40.797690 ] } }
]
}
